[
  {
    "id": "the-colony-by-infinitum-1",
    "place_name": "The Colony By Infinitum",
    "country": "Malasia",
    "lon": 101.7005514,
    "lat": 3.1606451,
    "rating": 1,
    "review_text": "Our stay unfortunately did not go as expected. When we arrived late at night, the apartment was not fully prepared for four guests as booked — there was only one bed available and additional mattresses had to be brought later. After going to sleep, we discovered several bed bugs in the bedroom mattress. We immediately informed the reception and staff came to spray chemicals and change the sheets. However, considering the situation and the hygiene concerns, we did not feel comfortable sleeping in the bedroom anymore. As a result, all four of us ended up sleeping on additional mattresses placed on the living room floor, which made the night quite uncomfortable and left everyone feeling uneasy about the hygiene conditions. The staff did try to respond during the night, but unfortunately the situation could not be properly resolved and we had to move to another accommodation the next day. I hope the property addresses this issue seriously, as bed bugs are a significant hygiene problem and can greatly affect guests’ experience.",
    "text_length": 1038,
    "flower_count": 8,
    "life_state": "dies",
    "height": 45.0,
    "date": "2026-03-20T12:09:36.028914Z"
  },
  {
    "id": "room4dessert-2",
    "place_name": "Room4Dessert",
    "country": "Indonesia",
    "lon": 115.2532664,
    "lat": -8.4926471,
    "rating": 5,
    "review_text": "We had the spiritless tasting and I don't have more words than: WOW, surprising, kind, beautiful, fullfilling all the staff was also so beautiful, so nice with us, and they really made us have a beautiful night! Then the following day we had a such a nice walk through the garden with Arista, the back stage of the story that the restaurant told us.",
    "text_length": 349,
    "flower_count": 5,
    "life_state": "lives",
    "height": 135.0,
    "date": "2026-01-17T09:57:14.723294Z"
  },
  {
    "id": "mupu-rice-terrace-3",
    "place_name": "Mupu Rice Terrace",
    "country": "Indonesia",
    "lon": 115.2794535,
    "lat": -8.4299971,
    "rating": 5,
    "review_text": "Beautiful view to the terrace fields, and we had such an amazing time talking about life with made sate, they owner of those fields",
    "text_length": 131,
    "flower_count": 2,
    "life_state": "lives",
    "height": 135.0,
    "date": "2026-01-16T08:18:07.851594Z"
  },
  {
    "id": "mai-malu-warung-4",
    "place_name": "Mai Malu Warung",
    "country": "Indonesia",
    "lon": 115.2641471,
    "lat": -8.5095992,
    "rating": 5,
    "review_text": "We had a great time and they could make our food according to our dietary requirements",
    "text_length": 86,
    "flower_count": 2,
    "life_state": "lives",
    "height": 135.0,
    "date": "2026-01-13T11:04:40.816409Z"
  },
  {
    "id": "kimchee-busan-guesthouse-5",
    "place_name": "Kimchee Busan Guesthouse",
    "country": "Corea del Sur",
    "lon": 129.060344,
    "lat": 35.1483662,
    "rating": 3,
    "review_text": "The hostel has all the amenities, but the pipes going through some rooms are noisy, like it recharging something, it's ok if you are going to use it only as a base to visit the surroundings",
    "text_length": 189,
    "flower_count": 3,
    "life_state": "lives",
    "height": 85.0,
    "date": "2025-07-06T03:02:14.822874Z"
  },
  {
    "id": "seoul-cube-jongro-6",
    "place_name": "Seoul Cube Jongro",
    "country": "180 4 층",
    "lon": 126.984665,
    "lat": 37.5691113,
    "rating": 5,
    "review_text": "It's nice, it's what you expect from a capsule hostel",
    "text_length": 53,
    "flower_count": 1,
    "life_state": "lives",
    "height": 135.0,
    "date": "2025-07-03T07:52:07.473874Z"
  },
  {
    "id": "nyuh-gading-home-stay-lembongan-7",
    "place_name": "Nyuh Gading Home Stay Lembongan",
    "country": "Indonesia",
    "lon": 115.4477966,
    "lat": -8.6736477,
    "rating": 5,
    "review_text": "This is the first hostel ever on doing my bed even though I was staying there, haha I was surprised I liked it",
    "text_length": 110,
    "flower_count": 2,
    "life_state": "lives",
    "height": 135.0,
    "date": "2025-06-30T10:10:46.002092Z"
  },
  {
    "id": "strand-rockpool-8",
    "place_name": "Strand Rockpool",
    "country": "Australia",
    "lon": 146.806501,
    "lat": -19.2397743,
    "rating": 4,
    "review_text": "",
    "text_length": 0,
    "flower_count": 1,
    "life_state": "lives",
    "height": 110.0,
    "date": "2025-06-30T10:09:31.768382Z"
  },
  {
    "id": "jb-hi-fi-townsville-home-9",
    "place_name": "JB Hi-Fi Townsville HOME",
    "country": "Australia",
    "lon": 146.7581341,
    "lat": -19.2767748,
    "rating": 5,
    "review_text": "We always had good experiences here we always went to buy stuffs here",
    "text_length": 69,
    "flower_count": 1,
    "life_state": "lives",
    "height": 135.0,
    "date": "2025-06-30T10:09:21.094386Z"
  },
  {
    "id": "the-blue-door-bar-restaurant-club-10",
    "place_name": "The Blue Door Bar, Restaurant & Club",
    "country": "Indonesia",
    "lon": 115.2602837,
    "lat": -8.5140359,
    "rating": 5,
    "review_text": "Really nice!! We got the special of tuestda pasta and wine, really lovely and our waitress recommended us some stuffs to do around ubud",
    "text_length": 135,
    "flower_count": 2,
    "life_state": "lives",
    "height": 135.0,
    "date": "2025-06-30T10:08:10.465123Z"
  },
  {
    "id": "pizzeria-italia-ii-11",
    "place_name": "PIZZERIA ITALIA II",
    "country": "Indonesia",
    "lon": 115.1566288,
    "lat": -8.8146965,
    "rating": 4,
    "review_text": "Really good services, and tasty pasta!",
    "text_length": 38,
    "flower_count": 1,
    "life_state": "lives",
    "height": 110.0,
    "date": "2025-06-30T10:07:15.251085Z"
  },
  {
    "id": "melasti-beach-ungasan-12",
    "place_name": "Melasti Beach Ungasan",
    "country": "Unnamed Road",
    "lon": 115.1606704,
    "lat": -8.8477419,
    "rating": 4,
    "review_text": "Nice place to spend the day and watch the kecak, remember that as it is a national park you have to pay a fee in cash",
    "text_length": 117,
    "flower_count": 2,
    "life_state": "lives",
    "height": 110.0,
    "date": "2025-06-30T10:05:27.805342Z"
  },
  {
    "id": "acai-queen-13",
    "place_name": "Acai Queen",
    "country": "Indonesia",
    "lon": 115.1700763,
    "lat": -8.7164156,
    "rating": 4,
    "review_text": "Nice place to have something quick, and cheap and small",
    "text_length": 55,
    "flower_count": 1,
    "life_state": "lives",
    "height": 110.0,
    "date": "2025-06-30T10:04:37.317413Z"
  },
  {
    "id": "dolan-restaurant-park-14",
    "place_name": "Dolan Restaurant & Park",
    "country": "Indonesia",
    "lon": 115.1299646,
    "lat": -8.6586815,
    "rating": 4,
    "review_text": "It was nice but we wanted to eat pizza and they just informed us that they run out of them when we were making our order",
    "text_length": 120,
    "flower_count": 2,
    "life_state": "lives",
    "height": 110.0,
    "date": "2025-06-30T10:02:55.345181Z"
  },
  {
    "id": "motel-mexicola-canggu-15",
    "place_name": "Motel Mexicola | Canggu",
    "country": "Indonesia",
    "lon": 115.1303954,
    "lat": -8.6589419,
    "rating": 5,
    "review_text": "We went for party here and I just loved it we danced the whole night, the offer me to have the water flamingo and it was woooow",
    "text_length": 127,
    "flower_count": 2,
    "life_state": "lives",
    "height": 135.0,
    "date": "2025-06-30T10:00:39.969270Z"
  },
  {
    "id": "la-brisa-bali-beach-club-16",
    "place_name": "La Brisa Bali | Beach Club",
    "country": "Indonesia",
    "lon": 115.1258092,
    "lat": -8.6541729,
    "rating": 5,
    "review_text": "The staff was so nice and always asking us if we were ok, food was also a 10 and we could move around the whole restaurant once that we spent the maximum required.",
    "text_length": 163,
    "flower_count": 3,
    "life_state": "lives",
    "height": 135.0,
    "date": "2025-06-30T09:58:18.650497Z"
  },
  {
    "id": "sacred-monkey-forest-sanctuary-17",
    "place_name": "Sacred Monkey Forest Sanctuary",
    "country": "Indonesia",
    "lon": 115.2606299,
    "lat": -8.5193727,
    "rating": 5,
    "review_text": "Be careful with the monkey they bite and sometimes gets annoyed if you watch them at their eyes",
    "text_length": 95,
    "flower_count": 2,
    "life_state": "lives",
    "height": 135.0,
    "date": "2025-06-30T09:55:22.781371Z"
  },
  {
    "id": "tegallalang-rice-terrace-18",
    "place_name": "Tegallalang Rice Terrace",
    "country": "Indonesia",
    "lon": 115.279303,
    "lat": -8.4317112,
    "rating": 5,
    "review_text": "Really beautiful place to spend some hours!",
    "text_length": 43,
    "flower_count": 1,
    "life_state": "lives",
    "height": 135.0,
    "date": "2025-06-30T09:54:07.881773Z"
  },
  {
    "id": "gembleng-waterfall-19",
    "place_name": "Gembleng Waterfall",
    "country": "Indonesia",
    "lon": 115.460857,
    "lat": -8.4926826,
    "rating": 5,
    "review_text": "Stunning view, you just have to donate money",
    "text_length": 44,
    "flower_count": 1,
    "life_state": "lives",
    "height": 135.0,
    "date": "2025-06-30T09:53:13.809513Z"
  },
  {
    "id": "sweet-escape-20",
    "place_name": "Sweet Escape",
    "country": "Indonesia",
    "lon": 115.4805484,
    "lat": -8.4525407,
    "rating": 4,
    "review_text": "Even though it's a bit far away from Sidemen, we liked it a lot because was cheap, was stunning, just a bit noisy because of the remodeling but was really great!",
    "text_length": 161,
    "flower_count": 3,
    "life_state": "lives",
    "height": 110.0,
    "date": "2025-06-30T09:51:51.313050Z"
  },
  {
    "id": "the-coconut-hut-mini-golf-21",
    "place_name": "The Coconut Hut - Mini Golf",
    "country": "Indonesia",
    "lon": 115.4537836,
    "lat": -8.6637816,
    "rating": 5,
    "review_text": "Such good ambience and chill vibes!",
    "text_length": 35,
    "flower_count": 1,
    "life_state": "lives",
    "height": 135.0,
    "date": "2025-06-30T09:49:37.280615Z"
  },
  {
    "id": "turtle-shore-22",
    "place_name": "Turtle Shore",
    "country": "Indonesia",
    "lon": 116.0389891,
    "lat": -8.3387996,
    "rating": 5,
    "review_text": "Really nice full of turtles to see!",
    "text_length": 35,
    "flower_count": 1,
    "life_state": "lives",
    "height": 135.0,
    "date": "2025-06-30T09:49:20.820393Z"
  },
  {
    "id": "gili-castle-23",
    "place_name": "Gili Castle",
    "country": "Indonesia",
    "lon": 116.0430295,
    "lat": -8.3507116,
    "rating": 4,
    "review_text": "We were staying at Gili castle 2 and we couldn't get connected to the internet in our rooms, and as it thick the walls our data couldn't reach properly either, then the rest of the things were ok!",
    "text_length": 196,
    "flower_count": 3,
    "life_state": "lives",
    "height": 110.0,
    "date": "2025-06-30T09:48:44.202264Z"
  },
  {
    "id": "asri-dining-by-samanvaya-24",
    "place_name": "Asri Dining by Samanvaya",
    "country": "Indonesia",
    "lon": 115.4407987,
    "lat": -8.4747729,
    "rating": 5,
    "review_text": "The time here was divine! The food, ambience, and the service was nice, helpful and happy to tell you everything about Sidemen, Ritah was our waitress and she just made us feel cared! 🥰",
    "text_length": 185,
    "flower_count": 3,
    "life_state": "lives",
    "height": 135.0,
    "date": "2025-06-26T05:21:18.530399Z"
  },
  {
    "id": "mama-africa-bar-nightclub-25",
    "place_name": "Mama Africa Bar & Nightclub",
    "country": "Australia",
    "lon": 148.7169112,
    "lat": -20.2679031,
    "rating": 5,
    "review_text": "It really worth it the Latin party on Thursdays by Juampi dj! I've enjoyed so much with friends, definitely I would come back",
    "text_length": 125,
    "flower_count": 2,
    "life_state": "lives",
    "height": 135.0,
    "date": "2025-03-06T16:36:24.737560Z"
  },
  {
    "id": "synergie-australia-rockhampton-26",
    "place_name": "Synergie Australia - Rockhampton",
    "country": "Australia",
    "lon": 150.5128412,
    "lat": -23.3802664,
    "rating": 5,
    "review_text": "I recently worked with Joy George from the Rockhampton IPA office by Synergie, and I couldn't be happier with the experience. Joy was professional, approachable, and honest about the expectations of the work in the mines. It was provided a clear guidance throughout the process and went above and beyond to ensure a smooth experience. I highly recommend Joy and the team for anyone seeking reliable and supportive recruitment services in Rockhampton.",
    "text_length": 450,
    "flower_count": 6,
    "life_state": "lives",
    "height": 135.0,
    "date": "2025-01-08T09:13:12.596771Z"
  },
  {
    "id": "paddington-social-27",
    "place_name": "Paddington Social",
    "country": "Australia",
    "lon": 153.007911,
    "lat": -27.4621125,
    "rating": 5,
    "review_text": "Really nice place to stop by and have a drink with the amazing patisserie, try the mandarine tart!",
    "text_length": 98,
    "flower_count": 2,
    "life_state": "lives",
    "height": 135.0,
    "date": "2024-02-11T04:19:14.445482Z"
  },
  {
    "id": "fansipan-terrace-cafe-foods-28",
    "place_name": "Fansipan Terrace Cafe & Foods",
    "country": "Vietnam",
    "lon": 103.8385174,
    "lat": 22.3326387,
    "rating": 5,
    "review_text": "Lovely coconut coffe but the weather that day was foggy!",
    "text_length": 56,
    "flower_count": 1,
    "life_state": "lives",
    "height": 135.0,
    "date": "2024-02-11T04:18:29.181445Z"
  },
  {
    "id": "lustig-hostel-29",
    "place_name": "Lustig Hostel",
    "country": "Vietnam",
    "lon": 103.8398823,
    "lat": 22.3400311,
    "rating": 5,
    "review_text": "Lovely hostel and really comfy even though that the mattress are a bit tough",
    "text_length": 76,
    "flower_count": 1,
    "life_state": "lives",
    "height": 135.0,
    "date": "2024-02-11T04:18:01.169575Z"
  },
  {
    "id": "diep-nhung-30",
    "place_name": "Diep Nhung",
    "country": "Vietnam",
    "lon": 105.2444781,
    "lat": 23.0674818,
    "rating": 5,
    "review_text": "Really nice place to have banquet while you doing the ha Giang loop",
    "text_length": 67,
    "flower_count": 1,
    "life_state": "lives",
    "height": 135.0,
    "date": "2024-02-11T04:17:34.061364Z"
  },
  {
    "id": "28-train-street-cafe-bistro-31",
    "place_name": "28 Train Street - Cafe & Bistro",
    "country": "Vietnam",
    "lon": 105.8449512,
    "lat": 21.0317707,
    "rating": 5,
    "review_text": "The owner is so lovely she took care of us so much, and her vibes even though she couldn't speak properly english was amazing! We highly recommend this coffee shop!",
    "text_length": 164,
    "flower_count": 3,
    "life_state": "lives",
    "height": 135.0,
    "date": "2024-02-11T04:17:01.959185Z"
  },
  {
    "id": "maharaja-lounge-authentic-indian-100-veg-restaurant-32",
    "place_name": "Maharaja Lounge - Authentic Indian 100% Veg Restaurant",
    "country": "Vietnam",
    "lon": 103.9646987,
    "lat": 10.2022801,
    "rating": 5,
    "review_text": "We arrive and we didn't know that was vegetarian but either way that was amazing food we loved it!",
    "text_length": 98,
    "flower_count": 2,
    "life_state": "lives",
    "height": 135.0,
    "date": "2024-02-09T21:09:14.973625Z"
  },
  {
    "id": "avs-hotel-phu-quoc-33",
    "place_name": "AVS HOTEL PHU QUOC",
    "country": "Vietnam",
    "lon": 103.9639088,
    "lat": 10.2006591,
    "rating": 5,
    "review_text": "Lovely crew, we really enjoy our stayed there and thank you so much for the hosts at the reception and the ones from breakfast that were always helpful and lovely",
    "text_length": 162,
    "flower_count": 3,
    "life_state": "lives",
    "height": 135.0,
    "date": "2024-02-09T21:08:22.083168Z"
  },
  {
    "id": "golden-palace-chinese-restaurant-chinatown-brisbane-34",
    "place_name": "Golden Palace Chinese Restaurant 金皇宮Chinatown Brisbane",
    "country": "Australia",
    "lon": 153.0339693,
    "lat": -27.4590349,
    "rating": 3,
    "review_text": "The experience with the food was just ok",
    "text_length": 40,
    "flower_count": 1,
    "life_state": "lives",
    "height": 85.0,
    "date": "2024-02-09T21:07:27.656636Z"
  },
  {
    "id": "happyhomes-28-sai-gon-central-hotel-35",
    "place_name": "HAPPYHOMES 28 Sai Gon Central Hotel",
    "country": "Vietnam",
    "lon": 106.696443,
    "lat": 10.767536,
    "rating": 5,
    "review_text": "Revenge though that it's really narrow the entrance the apartment was really lovely and amazing views at night",
    "text_length": 110,
    "flower_count": 2,
    "life_state": "lives",
    "height": 135.0,
    "date": "2024-02-09T21:06:32.765438Z"
  },
  {
    "id": "ta-hien-beer-street-36",
    "place_name": "Ta Hien Beer Street",
    "country": "Vietnam",
    "lon": 105.85234,
    "lat": 21.034621,
    "rating": 5,
    "review_text": "Really busy place to visit during the night and have drinks and enjoy the atmosphere",
    "text_length": 84,
    "flower_count": 2,
    "life_state": "lives",
    "height": 135.0,
    "date": "2024-02-09T21:05:28.751206Z"
  },
  {
    "id": "le-gecko-restaurant-37",
    "place_name": "Le Gecko Restaurant",
    "country": "Vietnam",
    "lon": 103.8499005,
    "lat": 22.3398604,
    "rating": 5,
    "review_text": "Nice dishes and good experience",
    "text_length": 31,
    "flower_count": 1,
    "life_state": "lives",
    "height": 135.0,
    "date": "2024-02-09T21:04:50.614532Z"
  },
  {
    "id": "superthing-38",
    "place_name": "Superthing",
    "country": "Australia",
    "lon": 153.008047,
    "lat": -27.4766785,
    "rating": 5,
    "review_text": "We love this place and had really good vibes, and you can also see how they do their products",
    "text_length": 93,
    "flower_count": 2,
    "life_state": "lives",
    "height": 135.0,
    "date": "2024-02-09T21:04:19.736388Z"
  },
  {
    "id": "fonzie-abbott-new-farm-39",
    "place_name": "Fonzie Abbott New Farm",
    "country": "Australia",
    "lon": 153.0481338,
    "lat": -27.4654298,
    "rating": 5,
    "review_text": "Lovely place to always have a coffee!!",
    "text_length": 38,
    "flower_count": 1,
    "life_state": "lives",
    "height": 135.0,
    "date": "2024-02-09T21:00:16.811180Z"
  },
  {
    "id": "kiss-of-the-sea-show-n-h-n-c-a-bi-n-c-40",
    "place_name": "Kiss of the Sea show - Nụ hôn của Biển Cả",
    "country": "Vietnam",
    "lon": 104.0060548,
    "lat": 10.0276968,
    "rating": 2,
    "review_text": "We didn't understand really good the story and also one of the acrobat suffer an injury that cut the show, good fireworks",
    "text_length": 121,
    "flower_count": 2,
    "life_state": "dies",
    "height": 65.0,
    "date": "2024-02-09T20:59:18.205065Z"
  },
  {
    "id": "the-home-pizza-tran-hung-dao-41",
    "place_name": "The Home Pizza Tran Hung Dao",
    "country": "Vietnam",
    "lon": 103.968635,
    "lat": 10.197456,
    "rating": 5,
    "review_text": "Good if you want to escape for a bit with the food, good Italian cuisine, recommended the pizzas slices with cheese and honey",
    "text_length": 125,
    "flower_count": 2,
    "life_state": "lives",
    "height": 135.0,
    "date": "2024-02-09T20:58:18.545340Z"
  },
  {
    "id": "nh-h-ng-h-i-s-n-thu-n-t-i-42",
    "place_name": "Nhà hàng hải sản Thuận Tài",
    "country": "Vietnam",
    "lon": 103.9596825,
    "lat": 10.2114521,
    "rating": 5,
    "review_text": "Really nice place to enjoy a lot of seafood",
    "text_length": 43,
    "flower_count": 1,
    "life_state": "lives",
    "height": 135.0,
    "date": "2024-02-09T20:57:29.380136Z"
  },
  {
    "id": "pilgrim-brisbane-43",
    "place_name": "Pilgrim Brisbane",
    "country": "Australia",
    "lon": 153.0129952,
    "lat": -27.4655776,
    "rating": 5,
    "review_text": "It always nice to come back to this place that make you feel that you are for a bit in Latin America I really recommend it!",
    "text_length": 123,
    "flower_count": 2,
    "life_state": "lives",
    "height": 135.0,
    "date": "2024-02-08T14:46:04.049606Z"
  },
  {
    "id": "a-priori-coffee-house-44",
    "place_name": "A Priori Coffee House",
    "country": "Vietnam",
    "lon": 106.6684984,
    "lat": 10.7728472,
    "rating": 5,
    "review_text": "Hola! Para todos los latinos que se pasen por Ho Chi Minh no pueden no pasar por a priori, muy ricos café y con un ambiente muy chill! Y gracias a Thomas que fue muy amable con nosotros ❤️😊",
    "text_length": 189,
    "flower_count": 3,
    "life_state": "lives",
    "height": 135.0,
    "date": "2024-01-31T14:13:21.602220Z"
  },
  {
    "id": "socialtel-nueva-c-rdoba-45",
    "place_name": "Socialtel Nueva Córdoba",
    "country": "Argentina",
    "lon": -64.184962,
    "lat": -31.4236768,
    "rating": 5,
    "review_text": "Since the first time we arrived we felt welcome by the staff as any other Selina!. They were really helpful and lovely, they make you feel in home! I recommend this hostel for backpackers to make friends and to start a wonderful journey",
    "text_length": 236,
    "flower_count": 3,
    "life_state": "lives",
    "height": 135.0,
    "date": "2023-09-14T22:37:12.901468Z"
  },
  {
    "id": "quarterdeck-46",
    "place_name": "Quarterdeck",
    "country": "Australia",
    "lon": 146.8264367,
    "lat": -19.2506965,
    "rating": 5,
    "review_text": "Really nice place to spend the afternoon",
    "text_length": 40,
    "flower_count": 1,
    "life_state": "lives",
    "height": 135.0,
    "date": "2022-11-05T10:37:34.998101Z"
  },
  {
    "id": "domino-s-pizza-north-ward-47",
    "place_name": "Domino's Pizza North WArd",
    "country": "Australia",
    "lon": 146.8143667,
    "lat": -19.2521274,
    "rating": 5,
    "review_text": "We love Domino's and it's crew!",
    "text_length": 31,
    "flower_count": 1,
    "life_state": "lives",
    "height": 135.0,
    "date": "2022-11-05T10:36:42.061143Z"
  },
  {
    "id": "molly-malone-s-irish-pub-48",
    "place_name": "Molly Malone's Irish Pub",
    "country": "Australia",
    "lon": 146.8219146,
    "lat": -19.2569255,
    "rating": 5,
    "review_text": "We love this place we end up going with friends all the weekends, affordable prices",
    "text_length": 83,
    "flower_count": 2,
    "life_state": "lives",
    "height": 135.0,
    "date": "2022-11-05T10:36:09.152290Z"
  },
  {
    "id": "heritage-exchange-49",
    "place_name": "Heritage Exchange",
    "country": "Australia",
    "lon": 146.8203404,
    "lat": -19.2573065,
    "rating": 4,
    "review_text": "I really liked this cocktail bar, the sits next to the wall pretty comfy",
    "text_length": 72,
    "flower_count": 1,
    "life_state": "lives",
    "height": 110.0,
    "date": "2022-11-05T10:35:29.526363Z"
  },
  {
    "id": "strand-park-50",
    "place_name": "Strand Park",
    "country": "Australia",
    "lon": 146.8108013,
    "lat": -19.246277,
    "rating": 5,
    "review_text": "Really nice walk to enjoy a sunny day",
    "text_length": 37,
    "flower_count": 1,
    "life_state": "lives",
    "height": 135.0,
    "date": "2022-09-02T10:27:21.224164Z"
  },
  {
    "id": "cargo-bar-51",
    "place_name": "Cargo Bar",
    "country": "Australia",
    "lon": 151.2018329,
    "lat": -33.8686551,
    "rating": 4,
    "review_text": "The service and the Hamburger was ok, it just was empty cuz it was Monday, I'm more than willing to come again and try it on weekends",
    "text_length": 133,
    "flower_count": 2,
    "life_state": "lives",
    "height": 110.0,
    "date": "2022-08-18T10:25:11.733894Z"
  },
  {
    "id": "sydney-cbd-repair-centre-52",
    "place_name": "Sydney CBD Repair Centre",
    "country": "Australia",
    "lon": 151.2052551,
    "lat": -33.87922,
    "rating": 5,
    "review_text": "Really good service! I recommend it 100%",
    "text_length": 40,
    "flower_count": 1,
    "life_state": "lives",
    "height": 135.0,
    "date": "2022-06-22T08:15:17.003758Z"
  },
  {
    "id": "picasso-joyer-a-53",
    "place_name": "Picasso Joyería",
    "country": "Argentina",
    "lon": -58.4041166,
    "lat": -34.5934374,
    "rating": 5,
    "review_text": "La verdad que compre acá un dige que quería hace un montón y cuando lo recibí era más de lo que yo esperaba 😍, estoy muy contento con la atención y con la buena onda que tiene su atención al cliente! 100% recomendado",
    "text_length": 216,
    "flower_count": 3,
    "life_state": "lives",
    "height": 135.0,
    "date": "2021-07-01T23:14:50.696648Z"
  },
  {
    "id": "garrison-resto-bar-54",
    "place_name": "Garrison Resto Bar",
    "country": "Argentina",
    "lon": -65.3079695,
    "lat": -24.1863722,
    "rating": 4,
    "review_text": "Rico solo que mi hamburguesa vino con un trozo de grasa grande",
    "text_length": 62,
    "flower_count": 1,
    "life_state": "lives",
    "height": 110.0,
    "date": "2019-10-21T03:31:04.903060Z"
  },
  {
    "id": "el-turco-sandwich-s-nieva-55",
    "place_name": "El Turco Sandwich's Nieva",
    "country": "Argentina",
    "lon": -65.3134337,
    "lat": -24.1861387,
    "rating": 5,
    "review_text": "5 estrellas desde que cambiaron las papas, ahora son ricas",
    "text_length": 58,
    "flower_count": 1,
    "life_state": "lives",
    "height": 135.0,
    "date": "2019-07-13T01:25:50.636600Z"
  },
  {
    "id": "hotel-los-sauces-cafayate-56",
    "place_name": "Hotel Los Sauces Cafayate",
    "country": "Argentina",
    "lon": -65.977905,
    "lat": -26.072685,
    "rating": 5,
    "review_text": "Me encantó el hotel.",
    "text_length": 20,
    "flower_count": 1,
    "life_state": "lives",
    "height": 135.0,
    "date": "2019-06-23T16:49:53.217885Z"
  },
  {
    "id": "el-alto-57",
    "place_name": "El Alto",
    "country": "Argentina",
    "lon": -65.303223,
    "lat": -24.185474,
    "rating": 5,
    "review_text": "Me gustó como lo remodelaron y el servicio fue muy bueno",
    "text_length": 56,
    "flower_count": 1,
    "life_state": "lives",
    "height": 135.0,
    "date": "2019-06-23T16:49:32.827884Z"
  },
  {
    "id": "do-a-salta-58",
    "place_name": "Doña Salta",
    "country": "Argentina",
    "lon": -65.4084659,
    "lat": -24.790535,
    "rating": 5,
    "review_text": "Si bien tuvimos que esperar para ser atendidos, valió la pena, 100% recomendable ir a comer ahí. Riquísimo todo",
    "text_length": 111,
    "flower_count": 2,
    "life_state": "lives",
    "height": 135.0,
    "date": "2019-06-23T16:48:55.938784Z"
  },
  {
    "id": "welt-brauerei-59",
    "place_name": "WELT Brauerei",
    "country": "Argentina",
    "lon": -65.3003982,
    "lat": -24.1857463,
    "rating": 2,
    "review_text": "No tenia maní para la cerveza, ni Hamburguesas :(",
    "text_length": 49,
    "flower_count": 1,
    "life_state": "dies",
    "height": 65.0,
    "date": "2019-06-23T16:48:01.247880Z"
  },
  {
    "id": "beets-roots-gro-e-hamburger-stra-e-60",
    "place_name": "beets&roots | Große Hamburger Straße",
    "country": "Alemania",
    "lon": 13.398588,
    "lat": 52.5266445,
    "rating": 5,
    "review_text": "It was excelent, the best rice i ever ate, OMG, excelent , damm it was so fucking amazing and delicious, my congratulations to the chef.",
    "text_length": 136,
    "flower_count": 2,
    "life_state": "lives",
    "height": 135.0,
    "date": "2019-06-13T21:18:13.732376Z"
  },
  {
    "id": "helader-a-ping-ino-garden-61",
    "place_name": "Heladería Pingüino Garden",
    "country": "Argentina",
    "lon": -65.3028416,
    "lat": -24.1834448,
    "rating": 5,
    "review_text": "Recomendado el helado de frutilla de crema",
    "text_length": 42,
    "flower_count": 1,
    "life_state": "lives",
    "height": 135.0,
    "date": "2019-06-09T05:17:25.319251Z"
  },
  {
    "id": "corralon-lucas-servitec-62",
    "place_name": "Corralon Lucas - Servitec",
    "country": "Argentina",
    "lon": -65.2985146,
    "lat": -24.1731178,
    "rating": 5,
    "review_text": "Una comodidad que este abierto incluso domingos por la mañana",
    "text_length": 61,
    "flower_count": 1,
    "life_state": "lives",
    "height": 135.0,
    "date": "2019-06-09T05:17:04.242213Z"
  },
  {
    "id": "fede-alvarez-tattoo-63",
    "place_name": "Fede Alvarez tattoo",
    "country": "Argentina",
    "lon": -65.3039679,
    "lat": -24.1818705,
    "rating": 1,
    "review_text": "",
    "text_length": 0,
    "flower_count": 1,
    "life_state": "dies",
    "height": 45.0,
    "date": "2019-06-09T05:16:33.916103Z"
  },
  {
    "id": "anfiteatro-las-lavanderas-64",
    "place_name": "Anfiteatro Las Lavanderas",
    "country": "Argentina",
    "lon": -65.3064804,
    "lat": -24.1899419,
    "rating": 4,
    "review_text": "Siempre hay eventos",
    "text_length": 19,
    "flower_count": 1,
    "life_state": "lives",
    "height": 110.0,
    "date": "2019-06-09T05:16:17.273209Z"
  },
  {
    "id": "tattoo-65",
    "place_name": "Tattoo",
    "country": "Argentina",
    "lon": -65.3074682,
    "lat": -24.1884255,
    "rating": 5,
    "review_text": "Aquí hice mi primer tatuaje y salió de diez",
    "text_length": 43,
    "flower_count": 1,
    "life_state": "lives",
    "height": 135.0,
    "date": "2019-06-09T05:16:01.980581Z"
  },
  {
    "id": "verduleria-sergio-66",
    "place_name": "Verduleria SERGIO",
    "country": "Argentina",
    "lon": -65.297923,
    "lat": -24.1728825,
    "rating": 4,
    "review_text": "",
    "text_length": 0,
    "flower_count": 1,
    "life_state": "lives",
    "height": 110.0,
    "date": "2019-06-09T05:15:14.838845Z"
  },
  {
    "id": "toba-srl-67",
    "place_name": "Toba SRL",
    "country": "Argentina",
    "lon": -65.3111328,
    "lat": -24.1823523,
    "rating": 5,
    "review_text": "",
    "text_length": 0,
    "flower_count": 1,
    "life_state": "lives",
    "height": 135.0,
    "date": "2019-06-09T05:14:46.537328Z"
  },
  {
    "id": "tecnicar-rtv-jujuy-68",
    "place_name": "Tecnicar Rtv Jujuy",
    "country": "Argentina",
    "lon": -65.3330317,
    "lat": -24.1782698,
    "rating": 5,
    "review_text": "Poca gente y rápido el servicio",
    "text_length": 31,
    "flower_count": 1,
    "life_state": "lives",
    "height": 135.0,
    "date": "2019-06-09T05:13:58.002785Z"
  },
  {
    "id": "changom-s-69",
    "place_name": "ChangoMâs",
    "country": "Argentina",
    "lon": -65.2884911,
    "lat": -24.2106779,
    "rating": 5,
    "review_text": "Mi super preferido",
    "text_length": 18,
    "flower_count": 1,
    "life_state": "lives",
    "height": 135.0,
    "date": "2019-06-09T05:13:31.465124Z"
  },
  {
    "id": "chevere-venezuela-70",
    "place_name": "Chevere Venezuela",
    "country": "Argentina",
    "lon": -65.3277596,
    "lat": -24.1670868,
    "rating": 5,
    "review_text": "Una salida diferente en Jujuy. 100% recomendado",
    "text_length": 47,
    "flower_count": 1,
    "life_state": "lives",
    "height": 135.0,
    "date": "2019-06-09T05:12:37.392341Z"
  },
  {
    "id": "django-resto-bar-71",
    "place_name": "Django Resto - Bar",
    "country": "Argentina",
    "lon": -65.30582,
    "lat": -24.1881995,
    "rating": 3,
    "review_text": "Las papas son muy artificiales.",
    "text_length": 31,
    "flower_count": 1,
    "life_state": "dies",
    "height": 85.0,
    "date": "2019-06-09T05:12:08.666499Z"
  },
  {
    "id": "caront-bar-72",
    "place_name": "Caronté Bar",
    "country": "Argentina",
    "lon": -65.3039448,
    "lat": -24.18428,
    "rating": 5,
    "review_text": "Siempre nos atienden de 10",
    "text_length": 26,
    "flower_count": 1,
    "life_state": "lives",
    "height": 135.0,
    "date": "2019-06-09T05:11:44.814476Z"
  },
  {
    "id": "negus-plaza-73",
    "place_name": "Negus Plaza",
    "country": "Argentina",
    "lon": -65.3002515,
    "lat": -24.1861758,
    "rating": 4,
    "review_text": "Recomiendo probar las cosas dulces",
    "text_length": 34,
    "flower_count": 1,
    "life_state": "lives",
    "height": 110.0,
    "date": "2019-06-09T05:10:37.632209Z"
  },
  {
    "id": "neum-ticos-jujuy-s-a-75",
    "place_name": "Neumáticos Jujuy S.A.",
    "country": "Argentina",
    "lon": -65.300393,
    "lat": -24.188562,
    "rating": 5,
    "review_text": "Muy amable los empleados y el dueño",
    "text_length": 35,
    "flower_count": 1,
    "life_state": "lives",
    "height": 135.0,
    "date": "2019-06-09T05:09:58.902281Z"
  },
  {
    "id": "sandwicher-a-luisi-o-76",
    "place_name": "Sandwichería Luisiño",
    "country": "Argentina",
    "lon": -65.2887899,
    "lat": -24.1958889,
    "rating": 5,
    "review_text": "Rico y barato",
    "text_length": 13,
    "flower_count": 1,
    "life_state": "lives",
    "height": 135.0,
    "date": "2019-06-09T05:09:14.257747Z"
  },
  {
    "id": "estacion-de-ferrocarril-77",
    "place_name": "Estacion De Ferrocarril",
    "country": "Argentina",
    "lon": -65.2988854,
    "lat": -24.1835623,
    "rating": 3,
    "review_text": "Un lugar como para visitar desde afuera",
    "text_length": 39,
    "flower_count": 1,
    "life_state": "lives",
    "height": 85.0,
    "date": "2019-06-09T05:08:47.742562Z"
  },
  {
    "id": "cerveza-patagonia-refugio-reconquista-79",
    "place_name": "Cerveza Patagonia - Refugio Reconquista",
    "country": "Argentina",
    "lon": -58.373466,
    "lat": -34.595435,
    "rating": 5,
    "review_text": "😍",
    "text_length": 1,
    "flower_count": 1,
    "life_state": "lives",
    "height": 135.0,
    "date": "2019-03-18T22:06:51.597359Z"
  },
  {
    "id": "meta-arte-80",
    "place_name": "Meta Arte",
    "country": "Argentina",
    "lon": -65.3213526,
    "lat": -24.1817074,
    "rating": 5,
    "review_text": "Excelente multiespacio para aprender y conocer gente copada!",
    "text_length": 60,
    "flower_count": 1,
    "life_state": "lives",
    "height": 135.0,
    "date": "2019-02-23T05:42:36.790573Z"
  },
  {
    "id": "topado-81",
    "place_name": "Topado",
    "country": "Argentina",
    "lon": -65.3308848,
    "lat": -24.1786998,
    "rating": 4,
    "review_text": "Bien solo que a cierto punto es un horno adentro",
    "text_length": 48,
    "flower_count": 1,
    "life_state": "lives",
    "height": 110.0,
    "date": "2019-02-15T04:08:25.656627Z"
  },
  {
    "id": "librer-a-san-pablo-83",
    "place_name": "Librería San Pablo",
    "country": "Argentina",
    "lon": -65.304078,
    "lat": -24.184632,
    "rating": 4,
    "review_text": "Siempre tiene de todo menos hoy que no tenía contact de madera oscura pero generalmente bien",
    "text_length": 92,
    "flower_count": 2,
    "life_state": "lives",
    "height": 110.0,
    "date": "2019-01-18T16:08:18.557283Z"
  },
  {
    "id": "vea-84",
    "place_name": "Vea",
    "country": "Argentina",
    "lon": -65.3203612,
    "lat": -24.1872126,
    "rating": 4,
    "review_text": "Un toquesin caro",
    "text_length": 16,
    "flower_count": 1,
    "life_state": "lives",
    "height": 110.0,
    "date": "2019-01-18T00:30:58.925263Z"
  },
  {
    "id": "bastion-de-los-pescadores-86",
    "place_name": "bastion de los pescadores",
    "country": "1014 Hungría",
    "lon": 19.0347812,
    "lat": 47.5021827,
    "rating": 5,
    "review_text": "Hungary 😍",
    "text_length": 9,
    "flower_count": 1,
    "life_state": "lives",
    "height": 135.0,
    "date": "2018-12-01T04:05:46.161603Z"
  },
  {
    "id": "szimpla-kert-ruin-bar-87",
    "place_name": "Szimpla Kert RUIN BAR",
    "country": "1075 Hungría",
    "lon": 19.0633459,
    "lat": 47.4969648,
    "rating": 5,
    "review_text": "I had a really strong hangover after going that pub, I loved it",
    "text_length": 63,
    "flower_count": 1,
    "life_state": "lives",
    "height": 135.0,
    "date": "2018-12-01T04:05:29.446012Z"
  },
  {
    "id": "temple-of-poseidon-88",
    "place_name": "Temple of Poseidon",
    "country": "Grecia",
    "lon": 24.0245867,
    "lat": 37.6502055,
    "rating": 5,
    "review_text": "One of the best sunsets in my life",
    "text_length": 34,
    "flower_count": 1,
    "life_state": "lives",
    "height": 135.0,
    "date": "2018-12-01T04:04:49.893803Z"
  },
  {
    "id": "giramundo-hostel-humahuaca-89",
    "place_name": "Giramundo Hostel Humahuaca",
    "country": "Argentina",
    "lon": -65.3477633,
    "lat": -23.2028042,
    "rating": 5,
    "review_text": "Buen hostel tranquilo con buena vista al indio",
    "text_length": 46,
    "flower_count": 1,
    "life_state": "lives",
    "height": 135.0,
    "date": "2018-12-01T04:02:44.972389Z"
  },
  {
    "id": "caf-dos-chinos-90",
    "place_name": "Café Dos Chinos",
    "country": "Argentina",
    "lon": -65.303287,
    "lat": -24.1840031,
    "rating": 5,
    "review_text": "Lugar renovado",
    "text_length": 14,
    "flower_count": 1,
    "life_state": "lives",
    "height": 135.0,
    "date": "2018-12-01T04:02:23.593998Z"
  },
  {
    "id": "annuar-shopping-91",
    "place_name": "Annuar Shopping",
    "country": "Argentina",
    "lon": -65.3010007,
    "lat": -24.1850806,
    "rating": 4,
    "review_text": "",
    "text_length": 0,
    "flower_count": 1,
    "life_state": "lives",
    "height": 110.0,
    "date": "2018-12-01T04:02:06.632526Z"
  },
  {
    "id": "plaza-belgrano-92",
    "place_name": "Plaza Belgrano",
    "country": "Argentina",
    "lon": -65.2994762,
    "lat": -24.1858241,
    "rating": 3,
    "review_text": "",
    "text_length": 0,
    "flower_count": 1,
    "life_state": "lives",
    "height": 85.0,
    "date": "2018-12-01T04:01:57.590881Z"
  },
  {
    "id": "rey-l-pulo-93",
    "place_name": "Rey Lúpulo",
    "country": "Argentina",
    "lon": -65.3016464,
    "lat": -24.1904821,
    "rating": 5,
    "review_text": "Buen lugar para compartir una cerveza entre amigos y las Hamburguesas son de 10",
    "text_length": 79,
    "flower_count": 1,
    "life_state": "lives",
    "height": 135.0,
    "date": "2018-12-01T04:01:50.961966Z"
  },
  {
    "id": "smarty-hotel-hostel-boardinghouse-94",
    "place_name": "SMARTY Hotel | Hostel | Boardinghouse",
    "country": "Alemania",
    "lon": 6.9383243,
    "lat": 50.9334441,
    "rating": 3,
    "review_text": "Nice hostel but it was a pitty thing that in the share rooms werent air conditioner",
    "text_length": 83,
    "flower_count": 2,
    "life_state": "lives",
    "height": 85.0,
    "date": "2018-08-14T00:50:38.115Z"
  },
  {
    "id": "delirium-caf-95",
    "place_name": "Delirium Café",
    "country": "Bélgica",
    "lon": 4.3538834,
    "lat": 50.8485002,
    "rating": 5,
    "review_text": "Only you are going to feel good vibes",
    "text_length": 37,
    "flower_count": 1,
    "life_state": "lives",
    "height": 135.0,
    "date": "2018-08-14T00:49:31.906Z"
  },
  {
    "id": "auberge-de-jeunesse-bruegel-96",
    "place_name": "Auberge de jeunesse Bruegel",
    "country": "Bélgica",
    "lon": 4.3515442,
    "lat": 50.841896,
    "rating": 3,
    "review_text": "Para la epoca que fui había un solo baño compartido habilitado para dos pisos, luego el hostel es buena opcion para ir",
    "text_length": 118,
    "flower_count": 2,
    "life_state": "lives",
    "height": 85.0,
    "date": "2018-08-14T00:49:13.703Z"
  },
  {
    "id": "castello-svevo-di-bari-97",
    "place_name": "Castello Svevo di Bari",
    "country": "Italia",
    "lon": 16.8663979,
    "lat": 41.127901,
    "rating": 4,
    "review_text": "Buen lugar para ir a dormir la siesta al csotado del castillo",
    "text_length": 61,
    "flower_count": 1,
    "life_state": "lives",
    "height": 110.0,
    "date": "2018-08-14T00:46:41.671Z"
  },
  {
    "id": "plaza-del-plebiscito-98",
    "place_name": "Plaza del Plebiscito",
    "country": "Italia",
    "lon": 14.2485831,
    "lat": 40.8358256,
    "rating": 4,
    "review_text": "Buen lugar para sacar portarretratos contrapicados",
    "text_length": 50,
    "flower_count": 1,
    "life_state": "lives",
    "height": 110.0,
    "date": "2018-08-14T00:46:18.226Z"
  },
  {
    "id": "eazie-amsterdam-bijlmerplein-99",
    "place_name": "Eazie Amsterdam Bijlmerplein",
    "country": "Países Bajos",
    "lon": 4.9496754,
    "lat": 52.3127645,
    "rating": 4,
    "review_text": "Buen lugar para comer woks!",
    "text_length": 27,
    "flower_count": 1,
    "life_state": "lives",
    "height": 110.0,
    "date": "2018-08-14T00:45:53.121Z"
  },
  {
    "id": "pizzeria-donna-sofia-ai-tribunali-napoli-101",
    "place_name": "Pizzeria Donna Sofia Ai Tribunali | Napoli",
    "country": "Italia",
    "lon": 14.257791,
    "lat": 40.85123,
    "rating": 5,
    "review_text": "Lindo lugar, lastima que ese dia perdia croacia contra francia",
    "text_length": 62,
    "flower_count": 1,
    "life_state": "lives",
    "height": 135.0,
    "date": "2018-08-14T00:44:39.761Z"
  },
  {
    "id": "radisson-blu-hotel-antwerp-city-centre-103",
    "place_name": "Radisson Blu Hotel, Antwerp City Centre",
    "country": "Bélgica",
    "lon": 4.4213914,
    "lat": 51.2191354,
    "rating": 5,
    "review_text": "",
    "text_length": 0,
    "flower_count": 1,
    "life_state": "lives",
    "height": 135.0,
    "date": "2018-08-14T00:43:17.099Z"
  },
  {
    "id": "alias-youth-hostel-104",
    "place_name": "Alias Youth Hostel",
    "country": "Bélgica",
    "lon": 4.4251336,
    "lat": 51.209584,
    "rating": 5,
    "review_text": "Muy buen hostel para ir, y nos atendio una Mexicana muy buena onda!",
    "text_length": 67,
    "flower_count": 1,
    "life_state": "lives",
    "height": 135.0,
    "date": "2018-08-14T00:43:10.155Z"
  },
  {
    "id": "coliseo-de-roma-105",
    "place_name": "Coliseo de Roma",
    "country": "Italia",
    "lon": 12.4922309,
    "lat": 41.8902102,
    "rating": 4,
    "review_text": "Nice place to go, but not in summer bweteen the hours 12-16",
    "text_length": 59,
    "flower_count": 1,
    "life_state": "lives",
    "height": 110.0,
    "date": "2018-08-14T00:42:38.063Z"
  },
  {
    "id": "fontana-di-trevi-106",
    "place_name": "Fontana di Trevi",
    "country": "Italia",
    "lon": 12.483313,
    "lat": 41.9009325,
    "rating": 4,
    "review_text": "i saw it like 5 meters away because it was full of people.",
    "text_length": 58,
    "flower_count": 1,
    "life_state": "lives",
    "height": 110.0,
    "date": "2018-08-14T00:42:01.310Z"
  },
  {
    "id": "xibi-xibi-comidas-para-llevar-107",
    "place_name": "Xibi - Xibi Comidas para llevar",
    "country": "Argentina",
    "lon": -65.305513,
    "lat": -24.1867993,
    "rating": 5,
    "review_text": "La comida de este local nunca te falla, riquisima siempre",
    "text_length": 57,
    "flower_count": 1,
    "life_state": "lives",
    "height": 135.0,
    "date": "2018-08-14T00:41:22.147Z"
  },
  {
    "id": "yellow-bar-108",
    "place_name": "Yellow Bar",
    "country": "Italia",
    "lon": 12.5045377,
    "lat": 41.904907,
    "rating": 5,
    "review_text": "Simplemente increible, y una opcion barata para salir en Roma",
    "text_length": 61,
    "flower_count": 1,
    "life_state": "lives",
    "height": 135.0,
    "date": "2018-08-14T00:40:50.103Z"
  },
  {
    "id": "efes-resto-kebab-109",
    "place_name": "Efes Resto kebab",
    "country": "Francia",
    "lon": 6.8563395,
    "lat": 47.6311025,
    "rating": 5,
    "review_text": "Efes c'est le mellieur lieu pour aller manger avec des amis",
    "text_length": 59,
    "flower_count": 1,
    "life_state": "lives",
    "height": 135.0,
    "date": "2018-08-14T00:40:28.204Z"
  },
  {
    "id": "burger-king-r-mlang-110",
    "place_name": "Burger King Rümlang",
    "country": "Suiza",
    "lon": 8.5235709,
    "lat": 47.4613997,
    "rating": 4,
    "review_text": "",
    "text_length": 0,
    "flower_count": 1,
    "life_state": "lives",
    "height": 110.0,
    "date": "2018-08-14T00:39:55.064Z"
  },
  {
    "id": "museo-vaticano-111",
    "place_name": "Museo Vaticano",
    "country": "Ciudad del Vaticano",
    "lon": 12.4536413,
    "lat": 41.9064878,
    "rating": 3,
    "review_text": "Recomendable ver la parte del museo de los dioses romanos/egipcios/griegos",
    "text_length": 74,
    "flower_count": 1,
    "life_state": "lives",
    "height": 85.0,
    "date": "2018-08-14T00:39:38.574Z"
  },
  {
    "id": "plaza-de-san-pedro-112",
    "place_name": "Plaza de San Pedro",
    "country": "Ciudad del Vaticano",
    "lon": 12.4567302,
    "lat": 41.9022309,
    "rating": 3,
    "review_text": "",
    "text_length": 0,
    "flower_count": 1,
    "life_state": "dies",
    "height": 85.0,
    "date": "2018-08-14T00:37:37.125Z"
  },
  {
    "id": "mateju-ka-113",
    "place_name": "Matejuška",
    "country": "Croacia",
    "lon": 16.4350101,
    "lat": 43.5074319,
    "rating": 2,
    "review_text": "Nice but there is a horrible smell",
    "text_length": 34,
    "flower_count": 1,
    "life_state": "dies",
    "height": 65.0,
    "date": "2018-08-14T00:37:30.540Z"
  },
  {
    "id": "palacio-de-diocleciano-115",
    "place_name": "Palacio de Diocleciano",
    "country": "Croacia",
    "lon": 16.4401754,
    "lat": 43.5082646,
    "rating": 4,
    "review_text": "Lovely place where at night you can see some people acting or playing instruments",
    "text_length": 81,
    "flower_count": 2,
    "life_state": "lives",
    "height": 110.0,
    "date": "2018-08-14T00:36:23.865Z"
  },
  {
    "id": "fnac-bruxelles-toison-d-or-116",
    "place_name": "FNAC Bruxelles - Toison d’Or",
    "country": "Bélgica",
    "lon": 4.3599282,
    "lat": 50.8372668,
    "rating": 4,
    "review_text": "",
    "text_length": 0,
    "flower_count": 1,
    "life_state": "lives",
    "height": 110.0,
    "date": "2018-08-14T00:35:39.325Z"
  },
  {
    "id": "grand-place-117",
    "place_name": "Grand Place",
    "country": "Bélgica",
    "lon": 4.3524356,
    "lat": 50.8467887,
    "rating": 5,
    "review_text": "Place where you feel like a in a typical town not a big capital at it is bruxelles",
    "text_length": 82,
    "flower_count": 2,
    "life_state": "lives",
    "height": 135.0,
    "date": "2018-08-14T00:35:22.130Z"
  },
  {
    "id": "mcdonald-s-118",
    "place_name": "McDonald's",
    "country": "Bélgica",
    "lon": 4.3492909,
    "lat": 50.8486551,
    "rating": 4,
    "review_text": "",
    "text_length": 0,
    "flower_count": 1,
    "life_state": "lives",
    "height": 110.0,
    "date": "2018-08-14T00:34:39.465Z"
  },
  {
    "id": "casa-de-anne-frank-119",
    "place_name": "Casa de Anne Frank",
    "country": "Países Bajos",
    "lon": 4.8839765,
    "lat": 52.3752182,
    "rating": 5,
    "review_text": "Nice, but pay atention to get the tickets online",
    "text_length": 48,
    "flower_count": 1,
    "life_state": "lives",
    "height": 135.0,
    "date": "2018-08-14T00:34:24.362Z"
  },
  {
    "id": "mcdonald-s-120",
    "place_name": "McDonald's",
    "country": "Países Bajos",
    "lon": 4.8927825,
    "lat": 52.3739461,
    "rating": 3,
    "review_text": "Nice but really crowed",
    "text_length": 22,
    "flower_count": 1,
    "life_state": "lives",
    "height": 85.0,
    "date": "2018-08-14T00:34:01.787Z"
  },
  {
    "id": "pepira-cafe-rest-121",
    "place_name": "PEPIRA Cafe & restó",
    "country": "Argentina",
    "lon": -65.2995211,
    "lat": -24.1877767,
    "rating": 5,
    "review_text": "Recomendable lugar con cervezas tiradas y de exportacion",
    "text_length": 56,
    "flower_count": 1,
    "life_state": "lives",
    "height": 135.0,
    "date": "2018-08-14T00:33:42.061Z"
  },
  {
    "id": "the-tobacco-bercy-122",
    "place_name": "THE TOBACCO BERCY",
    "country": "Francia",
    "lon": 2.3803383,
    "lat": 48.8400178,
    "rating": 4,
    "review_text": "",
    "text_length": 0,
    "flower_count": 1,
    "life_state": "lives",
    "height": 110.0,
    "date": "2018-08-14T00:33:18.966Z"
  },
  {
    "id": "bogot-123",
    "place_name": "Bogotá",
    "country": "Argentina",
    "lon": -65.3187839,
    "lat": -24.1691115,
    "rating": 5,
    "review_text": "Lindo lugar para pasar un finde por la noche",
    "text_length": 44,
    "flower_count": 1,
    "life_state": "lives",
    "height": 135.0,
    "date": "2018-08-14T00:32:26.591Z"
  },
  {
    "id": "goody-s-burger-house-124",
    "place_name": "Goody's Burger House",
    "country": "Grecia",
    "lon": 23.7299126,
    "lat": 37.9934574,
    "rating": 5,
    "review_text": "La comida excelente, prueben los platos con pescado",
    "text_length": 51,
    "flower_count": 1,
    "life_state": "lives",
    "height": 135.0,
    "date": "2018-07-08T21:42:26.704Z"
  },
  {
    "id": "plaza-de-la-libertad-125",
    "place_name": "Plaza de la Libertad",
    "country": "1054 Hungría",
    "lon": 19.0506096,
    "lat": 47.5039749,
    "rating": 4,
    "review_text": "",
    "text_length": 0,
    "flower_count": 1,
    "life_state": "lives",
    "height": 110.0,
    "date": "2018-07-06T14:22:01.539Z"
  },
  {
    "id": "u-parlamentu-126",
    "place_name": "U Parlamentu",
    "country": "Chequia",
    "lon": 14.4166059,
    "lat": 50.088249,
    "rating": 5,
    "review_text": "La comida excelente, el precio económico recomiendo probar el cerdo para compartir entre dos, riquísimo",
    "text_length": 103,
    "flower_count": 2,
    "life_state": "lives",
    "height": 135.0,
    "date": "2018-04-21T13:39:48.445Z"
  },
  {
    "id": "wombat-s-city-hostel-vienna-naschmarkt-127",
    "place_name": "Wombat's City Hostel Vienna Naschmarkt",
    "country": "Austria",
    "lon": 16.3608168,
    "lat": 48.1968948,
    "rating": 5,
    "review_text": "Muy bien localizado",
    "text_length": 19,
    "flower_count": 1,
    "life_state": "lives",
    "height": 135.0,
    "date": "2018-04-17T06:43:13.806Z"
  },
  {
    "id": "slovak-pub-128",
    "place_name": "Slovak Pub",
    "country": "Eslovaquia",
    "lon": 17.1123815,
    "lat": 48.1483824,
    "rating": 5,
    "review_text": "Recomiendo tomar aquí dark beer",
    "text_length": 31,
    "flower_count": 1,
    "life_state": "lives",
    "height": 135.0,
    "date": "2018-04-17T06:42:56.241Z"
  },
  {
    "id": "bratislavsk-hrad-129",
    "place_name": "Bratislavský Hrad",
    "country": "Eslovaquia",
    "lon": 17.1002348,
    "lat": 48.1421086,
    "rating": 5,
    "review_text": "Muy lindo y tranquilo",
    "text_length": 21,
    "flower_count": 1,
    "life_state": "lives",
    "height": 135.0,
    "date": "2018-04-17T06:42:40.355Z"
  },
  {
    "id": "bull-bear-restaurant-sportsbar-130",
    "place_name": "Bull & Bear Restaurant & Sportsbar",
    "country": "Alemania",
    "lon": 8.6783984,
    "lat": 50.1150892,
    "rating": 5,
    "review_text": "You pay what you eat, excellent",
    "text_length": 31,
    "flower_count": 1,
    "life_state": "lives",
    "height": 135.0,
    "date": "2018-04-09T04:58:39.757Z"
  },
  {
    "id": "adolf-wagner-131",
    "place_name": "Adolf Wagner",
    "country": "Alemania",
    "lon": 8.6819641,
    "lat": 50.1005298,
    "rating": 5,
    "review_text": "Really nice to eat",
    "text_length": 18,
    "flower_count": 1,
    "life_state": "lives",
    "height": 135.0,
    "date": "2018-04-09T04:58:17.397Z"
  },
  {
    "id": "nevermind-132",
    "place_name": "Nevermind",
    "country": "España",
    "lon": 2.1759367,
    "lat": 41.3806085,
    "rating": 5,
    "review_text": "Un bar excelente con buenas ofertas",
    "text_length": 35,
    "flower_count": 1,
    "life_state": "lives",
    "height": 135.0,
    "date": "2018-02-13T20:51:59.411Z"
  },
  {
    "id": "wow-i-stanbul-hotel-133",
    "place_name": "WOW İstanbul Hotel",
    "country": "Turquía",
    "lon": 28.8302371,
    "lat": 40.9878399,
    "rating": 5,
    "review_text": "Ideal hotel, muy bueno!",
    "text_length": 23,
    "flower_count": 1,
    "life_state": "lives",
    "height": 135.0,
    "date": "2018-01-30T15:02:00.662Z"
  },
  {
    "id": "ibis-budget-belfort-centre-134",
    "place_name": "ibis budget Belfort Centre",
    "country": "Francia",
    "lon": 6.8745911,
    "lat": 47.6391645,
    "rating": 1,
    "review_text": "Muy mala atención.",
    "text_length": 18,
    "flower_count": 1,
    "life_state": "dies",
    "height": 45.0,
    "date": "2018-01-30T15:01:34.119Z"
  },
  {
    "id": "bodeg-n-la-pipeta-135",
    "place_name": "Bodegón La Pipeta",
    "country": "Argentina",
    "lon": -58.3739775,
    "lat": -34.602247,
    "rating": 1,
    "review_text": "La atención fue pésima y mal cobrado",
    "text_length": 36,
    "flower_count": 1,
    "life_state": "dies",
    "height": 45.0,
    "date": "2018-01-29T15:39:54.599Z"
  },
  {
    "id": "alma-de-buenos-aires-136",
    "place_name": "Alma de Buenos Aires",
    "country": "Argentina",
    "lon": -58.3796436,
    "lat": -34.6020152,
    "rating": 4,
    "review_text": "Atención muy cálida",
    "text_length": 19,
    "flower_count": 1,
    "life_state": "lives",
    "height": 110.0,
    "date": "2018-01-29T15:39:15.918Z"
  },
  {
    "id": "la-bistecca-137",
    "place_name": "La Bistecca",
    "country": "Argentina",
    "lon": -58.3649744,
    "lat": -34.6206635,
    "rating": 5,
    "review_text": "A buen precio con una variedad importante de comida",
    "text_length": 51,
    "flower_count": 1,
    "life_state": "lives",
    "height": 135.0,
    "date": "2018-01-29T15:38:47.716Z"
  },
  {
    "id": "chan-chan-138",
    "place_name": "Chan Chan",
    "country": "Argentina",
    "lon": -58.385946,
    "lat": -34.6100343,
    "rating": 5,
    "review_text": "Se come excelente, muy buena recomendación, para ir a desgutar algo diferente, además de buen servicio y atención",
    "text_length": 113,
    "flower_count": 2,
    "life_state": "lives",
    "height": 135.0,
    "date": "2018-01-26T14:49:42.690Z"
  },
  {
    "id": "biblos-rest-coffee-139",
    "place_name": "Biblos Restó & Coffee",
    "country": "Argentina",
    "lon": -58.3841378,
    "lat": -34.595867,
    "rating": 5,
    "review_text": "",
    "text_length": 0,
    "flower_count": 1,
    "life_state": "lives",
    "height": 135.0,
    "date": "2018-01-24T17:04:34.292Z"
  },
  {
    "id": "bonafide-140",
    "place_name": "Bonafide",
    "country": "Argentina",
    "lon": -65.3187766,
    "lat": -24.1851845,
    "rating": 4,
    "review_text": "Muy buena ubicación en un barrio tranquilo",
    "text_length": 42,
    "flower_count": 1,
    "life_state": "lives",
    "height": 110.0,
    "date": "2018-01-24T17:03:01.189Z"
  },
  {
    "id": "bar-irlanda-141",
    "place_name": "Bar Irlanda",
    "country": "Argentina",
    "lon": -65.2111778,
    "lat": -26.8243249,
    "rating": 4,
    "review_text": "Recomendable ir entre amigos y escuchar música, prueben las papas gratinadas",
    "text_length": 76,
    "flower_count": 1,
    "life_state": "lives",
    "height": 110.0,
    "date": "2018-01-18T00:58:28.375Z"
  },
  {
    "id": "a-la-gurda-hostel-142",
    "place_name": "A la Gurda hostel",
    "country": "Argentina",
    "lon": -65.206247,
    "lat": -26.8238556,
    "rating": 5,
    "review_text": "Hostel cómodo, limpio y empleados amables",
    "text_length": 41,
    "flower_count": 1,
    "life_state": "lives",
    "height": 135.0,
    "date": "2018-01-18T00:57:39.757Z"
  },
  {
    "id": "el-turco-sandwich-s-centro-143",
    "place_name": "El Turco Sandwich's - centro",
    "country": "Argentina",
    "lon": -65.3022681,
    "lat": -24.1825901,
    "rating": 4,
    "review_text": "Se puede comer un poco más tarde se lo habitual ya que la cocina no cierra a las 00:00",
    "text_length": 86,
    "flower_count": 2,
    "life_state": "lives",
    "height": 110.0,
    "date": "2018-01-18T00:56:58.734Z"
  },
  {
    "id": "cine-teatro-municipal-select-144",
    "place_name": "Cine Teatro Municipal SELECT",
    "country": "Argentina",
    "lon": -65.3023692,
    "lat": -24.1838689,
    "rating": 5,
    "review_text": "Ideal para contrataciones, y el anfiteatro renovado es muy lindo",
    "text_length": 64,
    "flower_count": 1,
    "life_state": "lives",
    "height": 135.0,
    "date": "2018-01-18T00:47:12.731Z"
  },
  {
    "id": "negus-parque-145",
    "place_name": "Negus Parque",
    "country": "Argentina",
    "lon": -65.3173276,
    "lat": -24.1814545,
    "rating": 4,
    "review_text": "Lindo, casual y natural",
    "text_length": 23,
    "flower_count": 1,
    "life_state": "lives",
    "height": 110.0,
    "date": "2018-01-18T00:46:29.791Z"
  },
  {
    "id": "los-naranjos-parrillada-146",
    "place_name": "Los Naranjos Parrillada",
    "country": "Argentina",
    "lon": -65.2961456,
    "lat": -24.1872771,
    "rating": 5,
    "review_text": "Excelente.",
    "text_length": 10,
    "flower_count": 1,
    "life_state": "lives",
    "height": 135.0,
    "date": "2018-01-18T00:46:10.429Z"
  },
  {
    "id": "la-pizzer-a-de-t-o-bigote-147",
    "place_name": "La Pizzería de Tío Bigote",
    "country": "Argentina",
    "lon": -65.3083247,
    "lat": -24.1855334,
    "rating": 4,
    "review_text": "Ricas pizzas solo que en el interior hace calor cuando hay mucha gente",
    "text_length": 70,
    "flower_count": 1,
    "life_state": "lives",
    "height": 110.0,
    "date": "2018-01-18T00:46:00.329Z"
  },
  {
    "id": "hotel-impala-148",
    "place_name": "Hotel Impala",
    "country": "Argentina",
    "lon": -58.3843544,
    "lat": -34.5942187,
    "rating": 4,
    "review_text": "Hotel lindo, tranquilo, sin grandes expectativas con personal muy amable",
    "text_length": 72,
    "flower_count": 1,
    "life_state": "lives",
    "height": 110.0,
    "date": "2018-01-18T00:44:24.292Z"
  },
  {
    "id": "supermercados-comodin-149",
    "place_name": "Supermercados Comodin",
    "country": "Argentina",
    "lon": -65.2973351,
    "lat": -24.1725044,
    "rating": 4,
    "review_text": "Recomendable ir en horarios de la tarde para agilizar la compra, sino se tarda mucho en las cajas",
    "text_length": 97,
    "flower_count": 2,
    "life_state": "lives",
    "height": 110.0,
    "date": "2018-01-18T00:43:47.221Z"
  },
  {
    "id": "plaza-de-los-inmigrantes-150",
    "place_name": "Plaza de Los Inmigrantes",
    "country": "Argentina",
    "lon": -65.2938412,
    "lat": -24.1916139,
    "rating": 4,
    "review_text": "Lindo para pasar la tarde, lleno de actividades como baile y saya",
    "text_length": 65,
    "flower_count": 1,
    "life_state": "lives",
    "height": 110.0,
    "date": "2018-01-18T00:42:21.073Z"
  },
  {
    "id": "parque-san-mart-n-151",
    "place_name": "Parque San Martín",
    "country": "Argentina",
    "lon": -65.3155217,
    "lat": -24.1826297,
    "rating": 5,
    "review_text": "",
    "text_length": 0,
    "flower_count": 1,
    "life_state": "lives",
    "height": 135.0,
    "date": "2018-01-18T00:41:47.992Z"
  },
  {
    "id": "plaza-hip-lito-yrigoyen-152",
    "place_name": "Plaza Hipólito Yrigoyen",
    "country": "Argentina",
    "lon": -65.3165645,
    "lat": -24.1865809,
    "rating": 4,
    "review_text": "Lugar lindo para ir a matear",
    "text_length": 28,
    "flower_count": 1,
    "life_state": "lives",
    "height": 110.0,
    "date": "2018-01-18T00:41:42.680Z"
  },
  {
    "id": "el-turco-sandwich-s-153",
    "place_name": "El Turco Sandwich's",
    "country": "Argentina",
    "lon": -65.2997034,
    "lat": -24.1757485,
    "rating": 5,
    "review_text": "Lugar tranquilo para estar con amigos, acompañado de sándwiches",
    "text_length": 63,
    "flower_count": 1,
    "life_state": "lives",
    "height": 135.0,
    "date": "2018-01-18T00:41:13.248Z"
  },
  {
    "id": "restaurante-ruta-9-154",
    "place_name": "Restaurante Ruta 9",
    "country": "Argentina",
    "lon": -65.3085865,
    "lat": -24.200948,
    "rating": 5,
    "review_text": "Si quiere comer comida abundante y rica, es buena opción",
    "text_length": 56,
    "flower_count": 1,
    "life_state": "lives",
    "height": 135.0,
    "date": "2018-01-18T00:40:41.432Z"
  },
  {
    "id": "dulce-y-melanc-lico-155",
    "place_name": "Dulce y Melancólico",
    "country": "Argentina",
    "lon": -65.3071515,
    "lat": -24.1886416,
    "rating": 4,
    "review_text": "La decoración es muy buena, solo las sillas un poco incómodas",
    "text_length": 61,
    "flower_count": 1,
    "life_state": "lives",
    "height": 110.0,
    "date": "2018-01-18T00:39:48.747Z"
  },
  {
    "id": "playa-jo-o-fernandes-156",
    "place_name": "Playa João Fernandes",
    "country": "Brasil",
    "lon": -41.8752356,
    "lat": -22.7421251,
    "rating": 5,
    "review_text": "Es un lugar muy tranquilo y vistoso",
    "text_length": 35,
    "flower_count": 1,
    "life_state": "lives",
    "height": 135.0,
    "date": "2018-01-17T21:06:38.702Z"
  }
]